city,country,lat,lng,date,temp,humidity,cloudiness,wind_speed
Pochutla,MX,15.74,-96.47,1583820944,77.0,67,0,12.75
Floresta,BR,-8.6,-38.57,1583820944,74.32,82,91,5.99
Arraial do Cabo,BR,-22.97,-42.03,1583820945,75.76,85,0,10.8
Jumla,NP,29.27,82.18,1583820945,60.01,92,0,5.46
Hong Kong,HK,22.29,114.16,1583820877,76.95,56,20,19.46
Esperance,AU,-33.87,121.9,1583820945,75.2,53,61,11.41
Wuda,CN,39.5,106.71,1583820945,39.22,20,0,17.49
São João da Barra,BR,-21.64,-41.05,1583820945,75.22,84,0,2.66
Rovaniemi,FI,66.5,25.72,1583820945,30.2,92,40,13.87
Ribeira Grande,PT,38.52,-28.7,1583820945,58.48,86,100,16.35
Souillac,MU,-20.52,57.52,1583820946,80.73,78,75,18.34
Hilo,US,19.73,-155.09,1583820867,62.04,83,90,8.14
Champerico,GT,14.3,-91.92,1583820946,76.12,76,0,4.21
Ushuaia,AR,-54.8,-68.3,1583820946,44.6,81,75,20.8
Amahai,ID,-3.33,128.92,1583820946,85.48,67,99,6.06
Saint George,US,37.1,-113.58,1583820946,48.87,50,1,8.05
Lock Haven,US,41.14,-77.45,1583820946,47.16,34,1,4.72
East London,ZA,-33.02,27.91,1583820930,71.6,88,20,2.24
Puerto Ayora,EC,-0.74,-90.35,1583820946,78.01,100,0,7.85
Black Diamond,US,47.31,-122.0,1583820947,35.31,69,1,3.67
Broome,US,42.25,-75.83,1583820947,47.95,79,75,5.59
Barrow,US,71.29,-156.79,1583820902,-22.0,74,1,4.7
Independência,BR,-5.4,-40.31,1583820947,71.08,97,98,1.92
Ayagoz,KZ,47.97,80.44,1583820947,23.74,64,100,5.91
Tuktoyaktuk,CA,69.45,-133.04,1583820947,-16.6,75,90,6.93
Lázaro Cárdenas,MX,17.96,-102.2,1583820947,72.88,79,19,2.64
Rikitea,PF,-23.12,-134.97,1583820947,78.82,84,3,11.99
Cape Town,ZA,-33.93,18.42,1583820780,65.01,77,100,5.82
Mehamn,NO,71.04,27.85,1583820948,35.08,89,75,20.8
Lebu,CL,-37.62,-73.65,1583820948,50.56,79,45,3.31
Urucará,BR,-2.54,-57.76,1583820948,74.5,90,72,2.42
Ileza,RU,61.05,43.9,1583820948,32.92,94,96,7.52
Eshowe,ZA,-28.89,31.47,1583820948,75.76,75,25,1.92
Saskylakh,RU,71.92,114.08,1583820948,-26.3,90,0,3.56
Husavik,IS,66.04,-17.34,1583820949,30.2,80,20,14.99
Grand Gaube,MU,-20.01,57.66,1583820949,80.29,78,75,18.34
Shenavan,AM,40.05,43.93,1583820949,50.86,29,85,4.7
Fairbanks,US,64.84,-147.72,1583820933,3.24,84,90,6.93
Burhar,IN,23.22,81.53,1583820949,81.16,31,50,9.17
Monroe,US,43.15,-77.68,1583820949,53.42,46,90,4.7
Vaini,TO,-21.2,-175.2,1583820949,75.2,100,90,5.82
Mataura,NZ,-46.19,168.86,1583820950,52.0,78,100,8.01
Ţahţā,EG,26.77,31.5,1583820800,61.74,36,0,9.17
Albany,US,42.6,-73.97,1583820840,47.71,34,1,3.36
Kapaa,US,22.08,-159.32,1583820950,70.36,69,90,7.05
Punta Arenas,CL,-53.15,-70.92,1583820951,42.6,70,75,4.7
Winnemucca,US,40.97,-117.74,1583820951,28.4,74,1,4.7
Griffith,US,41.53,-87.42,1583820951,51.06,100,90,10.29
Thompson,CA,55.74,-97.86,1583820951,-20.2,75,5,0.74
Bambanglipuro,ID,-7.95,110.28,1583820951,85.66,66,60,10.42
Te Anau,NZ,-45.42,167.72,1583820725,50.38,85,95,6.6
Verkhnyaya Inta,RU,65.98,60.31,1583820952,32.02,96,100,24.14
Bac Lieu,VN,9.29,105.72,1583820952,101.5,29,0,7.85
Cherskiy,RU,68.75,161.3,1583820952,-8.12,94,100,7.52
Bredasdorp,ZA,-34.53,20.04,1583820952,67.64,72,87,9.17
Alta Gracia,AR,-31.65,-64.43,1583820952,69.37,88,90,3.36
Tokuyama,JP,34.05,131.82,1583820952,58.42,87,75,6.93
Hermanus,ZA,-34.42,19.23,1583820953,66.99,82,94,7.0
Port-Gentil,GA,-0.72,8.78,1583820953,80.6,94,40,2.24
Fort Nelson,CA,58.81,-122.7,1583820953,32.0,84,20,2.24
Pisco,PE,-13.7,-76.22,1583820953,72.18,83,0,5.82
Madang,PG,-5.22,145.8,1583820953,85.12,74,100,16.71
Marawi,PH,8.0,124.29,1583820953,82.99,76,27,5.99
Padang,ID,-0.95,100.35,1583820953,84.22,58,11,5.93
Noumea,NC,-22.28,166.46,1583820953,89.8,52,75,5.82
Makkah al Mukarramah,SA,21.43,39.83,1583820954,80.08,31,0,1.25
Bilma,NE,18.69,12.92,1583820954,66.58,25,10,8.66
Bazaliia,UA,49.71,26.47,1583820954,39.94,88,100,7.02
Auki,SB,-8.77,160.7,1583820954,83.32,79,100,15.79
Vila Franca do Campo,PT,37.72,-25.43,1583820954,60.8,67,75,10.29
Atuona,PF,-9.8,-139.03,1583820954,81.88,68,0,16.8
Oktyabr'skoye,RU,43.06,44.74,1583820954,35.6,100,90,2.24
Petropavlovsk-Kamchatskiy,RU,53.05,158.65,1583820954,33.8,59,40,11.18
Honningsvåg,NO,70.98,25.97,1583820954,34.56,80,75,40.26
Lompoc,US,34.64,-120.46,1583820955,55.47,71,100,9.57
Praia da Vitória,PT,38.73,-27.07,1583820955,62.6,67,75,23.26
Katsuura,JP,35.13,140.3,1583820955,60.04,100,75,5.82
Kuna,US,43.49,-116.42,1583820773,41.77,75,75,6.93
Yellowknife,CA,62.46,-114.35,1583820955,2.39,71,40,11.41
Kamaishi,JP,39.27,141.88,1583820955,55.4,93,75,2.24
Mahibadhoo,MV,3.78,72.97,1583820955,82.96,71,96,12.28
Longyearbyen,SJ,78.22,15.64,1583820956,-11.2,63,20,5.82
New Norfolk,AU,-42.78,147.06,1583820956,63.39,55,20,17.22
Upernavik,GL,72.79,-56.15,1583820956,-29.18,98,45,8.48
Khatanga,RU,71.97,102.5,1583820956,-19.82,93,0,4.41
Buenos Aires,AR,-34.61,-58.38,1583820956,67.15,73,90,18.34
Gazli,UZ,40.13,63.45,1583820956,48.58,33,0,5.19
Castro,BR,-24.79,-50.01,1583820956,61.54,91,34,6.42
Bluff,NZ,-46.6,168.33,1583820957,52.0,78,100,8.01
Ahipara,NZ,-35.17,173.17,1583820957,69.01,80,97,17.18
Rawson,AR,-43.3,-65.1,1583820923,66.04,60,31,23.51
Saint-Pierre,RE,-21.34,55.48,1583820957,83.05,62,1,13.87
Nanortalik,GL,60.14,-45.24,1583820957,22.12,72,97,10.11
Ganzhou,CN,28.82,115.43,1583820822,61.36,53,29,11.03
Sørland,NO,67.67,12.69,1583820957,33.8,86,75,13.87
Uyuni,BO,-20.46,-66.83,1583820958,49.84,61,5,15.59
Rāmpura,IN,30.25,75.23,1583820958,76.12,34,0,1.19
Coahuayana Viejo,MX,18.73,-103.68,1583820958,74.32,58,31,4.43
Gigmoto,PH,13.78,124.39,1583820958,80.8,77,33,14.12
Roswell,US,34.02,-84.36,1583820930,56.14,58,1,4.7
Provideniya,RU,64.38,-173.3,1583820958,-4.0,76,40,3.29
San Patricio,MX,19.22,-104.7,1583820958,75.94,75,36,5.1
Inhambane,MZ,-23.86,35.38,1583820959,78.8,78,20,8.12
Tilichiki,RU,60.47,166.1,1583820959,8.26,93,100,7.58
Bastrop,US,32.76,-91.87,1583820959,64.06,93,90,6.93
Tokur,RU,53.13,132.9,1583820959,16.18,72,100,3.31
Invermere,CA,50.52,-116.04,1583820959,10.6,82,26,0.81
Hobart,AU,-42.88,147.33,1583820800,63.93,55,20,17.22
Ancud,CL,-41.87,-73.82,1583820959,50.56,87,52,4.83
Tauá,BR,-5.97,-40.3,1583820959,70.54,94,100,1.9
Kavieng,PG,-2.57,150.8,1583820960,84.04,69,100,3.06
Jamestown,US,42.1,-79.24,1583820661,53.83,34,90,6.93
Qaanaaq,GL,77.48,-69.36,1583820960,-29.36,65,0,5.08
Carnarvon,AU,-24.87,113.63,1583820960,84.2,70,0,10.29
Saint Anthony,US,45.02,-93.22,1583820960,28.74,68,1,5.82
Hildburghausen,DE,50.43,10.73,1583820960,38.84,80,40,17.22
Keningau,MY,5.34,116.16,1583820960,86.0,66,20,13.87
Manggar,ID,-2.88,108.27,1583821182,82.78,77,98,7.9
Ashland,US,40.82,-82.27,1583821183,54.64,76,90,21.92
Mar del Plata,AR,-38.0,-57.56,1583820981,59.92,82,100,5.82
Amapá,BR,1.0,-52.0,1583821183,70.36,96,100,2.39
Bonavista,CA,48.65,-53.11,1583821183,8.01,70,74,21.99
Kulhudhuffushi,MV,6.62,73.07,1583821183,83.86,65,89,9.19
Dikson,RU,73.51,80.55,1583821183,-9.56,88,45,25.66
Vila Velha,BR,-20.33,-40.29,1583821160,75.09,94,75,3.36
Butaritari,KI,3.07,172.79,1583821183,83.86,80,100,19.35
Beisfjord,NO,68.38,17.6,1583821184,29.12,99,75,17.22
Mahon,ES,39.89,4.27,1583821064,51.8,66,43,17.22
Hithadhoo,MV,-0.6,73.08,1583821184,83.86,78,23,13.09
Camacupa,AO,-12.02,17.48,1583821184,64.06,96,94,1.16
Alofi,NU,-19.06,-169.92,1583820906,82.4,83,97,3.36
Berlevåg,NO,70.86,29.09,1583821184,35.6,80,75,27.51
Port Alfred,ZA,-33.59,26.89,1583821184,68.0,98,87,1.99
North Myrtle Beach,US,33.82,-78.68,1583821184,55.45,82,1,6.93
Geraldton,AU,-28.77,114.6,1583821185,98.6,23,0,18.34
Mitsamiouli,KM,-11.38,43.28,1583821185,87.8,70,20,5.82
Nsukka,NG,6.86,7.39,1583821185,80.6,78,20,3.36
Busselton,AU,-33.65,115.33,1583821091,90.37,13,36,14.47
Kieta,PG,-6.22,155.63,1583821185,82.78,78,96,6.55
Östersund,SE,63.18,14.64,1583821185,22.42,92,0,5.82
Dicabisagan,PH,17.08,122.42,1583821185,82.24,74,1,4.18
Muros,ES,42.78,-9.06,1583821185,48.15,100,90,3.36
Kahului,US,20.89,-156.47,1583820904,65.79,73,20,9.17
Dalnerechensk,RU,45.93,133.72,1583821186,28.6,77,100,11.54
Hasaki,JP,35.73,140.83,1583821186,62.56,93,75,9.17
Kiruna,SE,67.86,20.23,1583821186,32.0,76,18,13.87
Hamilton,US,39.18,-84.53,1583821124,57.72,59,90,18.34
Strezhevoy,RU,60.73,77.59,1583821186,17.6,61,18,8.95
Aksaray,TR,38.37,34.03,1583821129,53.6,32,75,21.92
Guerrero Negro,MX,27.98,-114.06,1583821130,65.86,49,90,7.31
Paamiut,GL,61.99,-49.67,1583821186,14.2,54,68,3.96
Sola,VU,-13.88,167.55,1583821187,89.6,75,75,8.72
Bambous Virieux,MU,-20.34,57.76,1583820952,80.64,78,75,18.34
Trogir,HR,43.51,16.25,1583821187,50.04,34,0,4.7
Saldanha,ZA,-33.01,17.94,1583820900,59.0,82,100,6.93
Paragominas,BR,-2.97,-47.48,1583821187,71.62,99,100,0.47
Polunochnoye,RU,60.87,60.42,1583821187,33.82,88,50,7.47
Smithers,CA,54.78,-127.17,1583821187,32.0,92,90,11.41
Kirkwall,GB,58.98,-2.96,1583821187,44.73,93,88,16.11
Carrefour,HT,18.54,-72.4,1583821187,75.2,64,3,8.05
Ekenäs,FI,59.97,23.43,1583821188,37.65,99,100,14.09
Port Blair,IN,11.67,92.75,1583820997,80.8,67,32,6.58
Syracuse,IT,37.09,15.28,1583821188,48.06,71,75,11.41
Abu Samrah,SY,35.3,37.18,1583821188,59.02,61,0,11.68
Isangel,VU,-19.55,169.27,1583821188,86.0,70,20,9.17
Pāsighāt,IN,28.07,95.33,1583821188,75.04,52,0,4.14
Sobolevo,RU,54.43,31.9,1583821188,41.92,93,98,2.91
Riyadh,SA,24.69,46.72,1583821151,66.2,42,0,2.24
Vao,NC,-22.67,167.48,1583821189,80.44,70,0,13.76
Laizhou,CN,37.18,119.93,1583821189,46.24,25,0,21.09
Coquimbo,CL,-29.95,-71.34,1583821189,60.8,93,90,8.68
Darhan,MN,49.49,105.92,1583821189,22.48,78,66,10.02
Puerto Escondido,MX,15.85,-97.07,1583821189,71.8,65,0,3.98
Portland,US,45.52,-122.68,1583821009,38.75,70,1,3.36
Egvekinot,RU,66.32,-179.17,1583821189,-20.0,100,99,4.07
Sitka,US,57.05,-135.33,1583821189,36.63,94,90,13.87
Havre-St-Pierre,CA,50.23,-63.6,1583821190,3.2,38,90,6.93
Port Lincoln,AU,-34.73,135.87,1583821190,74.68,44,0,8.95
Port Elizabeth,ZA,-33.92,25.57,1583821190,66.2,100,75,5.82
Santana do Livramento,BR,-30.89,-55.53,1583821190,66.94,87,0,5.86
George Town,MY,5.41,100.34,1583821108,91.54,63,20,8.05
Nanchang,CN,28.68,115.88,1583821111,62.8,53,87,5.77
Kotlas,RU,61.26,46.66,1583821190,32.02,92,90,8.05
Flin Flon,CA,54.77,-101.86,1583821191,-4.34,96,42,5.32
Lavrentiya,RU,65.58,-171.0,1583821191,-12.8,98,27,5.68
Cururupu,BR,-1.83,-44.87,1583821191,71.26,99,100,1.63
Nantucket,US,41.28,-70.1,1583821141,46.0,87,1,12.75
Bowen,AU,-20.02,148.23,1583821024,79.75,78,90,13.87
Aykhal,RU,66.0,111.5,1583821191,-18.4,68,99,6.71
Vilhena,BR,-12.74,-60.15,1583820989,70.36,91,54,1.14
Bintulu,MY,3.17,113.03,1583821192,86.0,79,75,5.82
Marquette,US,46.53,-87.63,1583821192,23.05,85,90,14.99
La Maddalena,IT,41.21,9.41,1583821192,32.0,76,25,1.12
Saint-Philippe,RE,-21.36,55.77,1583821192,82.99,62,35,13.87
Povarovo,RU,56.07,37.05,1583821192,40.15,93,75,8.95
Cabo San Lucas,MX,22.89,-109.91,1583820912,72.28,46,90,5.82
Tomatlán,MX,19.93,-105.25,1583821192,68.74,68,93,2.53
Biak,ID,-0.91,122.88,1583821192,84.22,74,41,14.14
Santa Clara,CU,22.4,-79.97,1583821077,68.0,88,40,3.36
Beringovskiy,RU,63.05,179.32,1583821193,0.52,99,97,1.52
San Andrés,CO,12.58,-81.7,1583821133,78.8,83,40,11.41
Nikolskoye,RU,59.7,30.79,1583821193,35.78,88,40,4.47
Dingle,PH,11.0,122.67,1583821193,88.18,54,0,7.94
Gamba,GA,-2.65,10.0,1583821193,78.64,91,94,2.68
Nanpiao,CN,41.1,120.75,1583821193,41.38,23,0,18.48
Owensboro,US,37.77,-87.11,1583821154,58.41,100,90,16.11
Marsh Harbour,BS,26.54,-77.06,1583821193,70.36,71,3,25.12
Necochea,AR,-38.55,-58.74,1583821194,48.99,89,100,1.99
Bethel,US,41.37,-73.41,1583820970,51.98,30,1,8.05
Jalu,LY,29.03,21.55,1583821194,55.6,68,0,4.07
Whitehorse,CA,60.72,-135.05,1583821194,19.81,85,40,10.29
Semnan,IR,35.57,53.4,1583821194,49.3,27,0,2.62
Dayong,CN,25.02,118.29,1583821194,75.2,57,20,4.47
Katobu,ID,-4.94,122.53,1583821194,90.16,56,32,6.85
Bungu,TZ,-7.63,39.06,1583821194,79.72,89,100,2.68
Irbeyskoye,RU,55.64,95.45,1583821194,26.08,88,100,12.62
Norman Wells,CA,65.28,-126.83,1583821195,-14.8,75,75,3.36
Dongtai,CN,32.85,120.31,1583821195,53.98,57,81,13.87
Birao,CF,10.28,22.79,1583821195,81.88,14,6,11.95
Galveston,US,29.37,-94.97,1583821195,67.5,93,20,11.41
Ürümqi,CN,43.8,87.6,1583821195,32.0,31,0,2.24
Distrikt Brokopondo,SR,4.75,-55.17,1583821195,71.98,86,71,6.6
Micheweni,TZ,-4.97,39.83,1583821195,84.58,70,99,3.87
Shiraz,IR,29.6,52.54,1583821155,51.8,20,0,4.7
Kiomboi,TZ,-4.27,34.37,1583821196,62.98,96,100,3.62
Rosetta,EG,31.4,30.42,1583821196,50.0,87,20,2.24
Khargone,IN,21.82,75.6,1583821196,87.64,21,4,9.26
Bandarbeyla,SO,9.49,50.81,1583821196,77.2,72,19,13.94
Bereslavka,RU,48.63,44.04,1583821196,33.8,100,90,17.9
Devils Lake,US,48.11,-98.87,1583821196,21.92,79,90,4.7
Avarua,CK,-21.21,-159.78,1583821196,77.0,88,100,2.24
Udachny,RU,66.42,112.4,1583821196,-18.4,68,98,6.71
Namatanai,PG,-3.67,152.43,1583821197,83.5,78,100,14.54
Saint Paul Harbor,US,57.79,-152.41,1583821197,32.0,79,1,14.83
Codrington,AU,-38.27,141.97,1583821197,61.36,80,0,18.77
Whyalla,AU,-33.03,137.58,1583821197,82.4,30,0,12.75
Okhotsk,RU,59.38,143.3,1583821197,3.22,79,48,5.61
Tasiilaq,GL,65.61,-37.64,1583821197,15.8,43,100,22.64
Avera,US,33.19,-82.53,1583821197,59.27,77,75,4.7
Pevek,RU,69.7,170.31,1583821197,-15.5,97,98,5.86
Youkounkoun,GN,12.53,-13.13,1583821198,68.92,81,82,4.14
Belaya Gora,RU,68.53,146.42,1583821198,-18.2,92,39,2.06
Olafsvik,IS,64.89,-23.71,1583821198,29.86,68,100,27.72
Kamenka,RU,51.32,42.77,1583821198,46.53,84,88,4.0
Meulaboh,ID,4.14,96.13,1583821198,84.4,72,99,7.96
Tiksi,RU,71.69,128.87,1583821198,-26.48,83,63,2.71
Port Hardy,CA,50.7,-127.42,1583821198,39.2,64,90,8.05
Leningradskiy,RU,69.38,178.42,1583821198,-11.54,87,100,4.54
Talnakh,RU,69.49,88.4,1583821198,-11.2,63,7,13.42
Matagami,CA,49.75,-77.63,1583821199,15.8,92,90,3.36
Tura,IN,25.52,90.22,1583821199,86.2,22,0,4.5
Port Macquarie,AU,-31.43,152.92,1583821146,66.47,93,75,9.17
Nouadhibou,MR,20.93,-17.03,1583821199,70.72,42,0,17.81
Dumas,US,35.87,-101.97,1583821199,48.45,70,1,12.75
Faanui,PF,-16.48,-151.75,1583821199,83.14,75,94,10.0
Iracoubo,GF,5.48,-53.2,1583821199,78.82,75,86,16.51
Sisimiut,GL,66.94,-53.67,1583821200,-3.08,93,74,6.8
Margate,GB,51.38,1.39,1583821200,52.03,87,75,20.8
Black River,JM,18.03,-77.85,1583821200,76.59,78,75,16.11
Pismo Beach,US,35.14,-120.64,1583821200,54.34,87,1,4.29
Grindavik,IS,63.84,-22.43,1583821200,32.0,54,100,18.34
Olinda,BR,-8.01,-34.86,1583821200,77.0,83,52,3.36
Sulangan,PH,11.14,123.72,1583821200,80.8,73,0,7.25
Mahébourg,MU,-20.41,57.7,1583821200,80.67,78,75,18.34
Tadine,NC,-21.55,167.88,1583821200,79.54,75,45,10.69
Big Bend,SZ,-26.82,31.93,1583821201,68.0,88,4,2.93
Mahesāna,IN,23.6,72.4,1583821201,77.0,57,40,9.17
Tessalit,ML,20.2,1.01,1583821201,58.48,15,74,9.55
Gizo Government Station,SB,-8.1,156.84,1583821201,78.64,87,100,10.8
Kuytun,RU,54.34,101.5,1583821201,24.46,89,100,11.52
Ostrovnoy,RU,68.05,39.51,1583821201,34.36,85,85,29.53
Yulara,AU,-25.24,130.99,1583821201,98.6,11,0,8.05
Mount Gambier,AU,-37.83,140.77,1583821201,77.0,27,0,8.05
Fortuna,US,40.6,-124.16,1583821202,42.04,93,1,1.39
Rabo de Peixe,PT,37.8,-25.58,1583821202,60.8,67,75,10.29
Priiskovyy,RU,51.93,116.63,1583821202,19.42,83,0,8.23
Fare,PF,-16.7,-151.02,1583821202,83.14,74,93,9.06
Koslan,RU,63.46,48.9,1583821202,28.96,93,100,10.09
Salinópolis,BR,-0.61,-47.36,1583821202,77.2,83,100,3.13
Camalú,MX,30.85,-116.07,1583821202,58.84,77,100,0.76
Clyde River,CA,70.47,-68.59,1583821202,-34.6,73,1,2.24
Bathsheba,BB,13.22,-59.52,1583821203,77.0,78,75,17.22
Sittwe,MM,20.15,92.9,1583821203,79.54,51,0,16.35
Nagorsk,RU,59.32,50.81,1583821203,30.4,91,68,6.44
Berdigestyakh,RU,62.1,126.7,1583821203,11.32,90,100,7.09
Sept-Îles,CA,50.2,-66.38,1583821262,5.0,34,75,9.17
Antofagasta,CL,-23.65,-70.4,1583821262,64.4,88,78,2.24
Batagay-Alyta,RU,67.8,130.41,1583821262,-20.36,93,100,4.43
Mmabatho,ZA,-25.85,25.63,1583821262,69.8,49,0,12.75
Iskateley,RU,67.68,53.15,1583821263,34.36,99,100,19.66
Mareeba,AU,-17.0,145.43,1583821263,76.82,94,75,2.24
Chui,UY,-33.7,-53.46,1583821263,66.04,92,1,7.72
Pangnirtung,CA,66.15,-65.71,1583821263,-30.62,96,100,2.55
Develi,TR,38.39,35.49,1583821263,59.0,41,40,17.22
Dzilam González,MX,21.28,-88.93,1583821263,74.14,72,44,17.92
La Ronge,CA,55.1,-105.28,1583821263,-9.4,76,5,4.7
Waingapu,ID,-9.66,120.26,1583821263,83.5,69,88,1.25
Ulladulla,AU,-35.35,150.47,1583821264,69.91,60,40,10.29
Boende,CD,-0.22,20.87,1583821264,72.16,93,99,3.36
Wanning,CN,18.8,110.4,1583821264,79.9,78,1,15.3
Bosobolo,CD,4.18,19.9,1583821264,76.84,68,73,4.16
Saint Andrews,US,34.05,-81.13,1583821264,57.88,72,90,5.82
Kolondiéba,ML,11.09,-6.89,1583821264,71.44,16,100,2.62
Oodweyne,SO,9.41,45.06,1583821264,73.78,56,6,5.28
Varkaus,FI,62.32,27.87,1583821264,34.84,93,90,10.29
Klyavlino,RU,54.26,52.03,1583821265,34.54,100,100,1.9
Salinas,US,36.68,-121.66,1583821207,54.93,76,90,4.43
Severo-Kuril'sk,RU,50.68,156.12,1583821265,25.36,84,100,11.32
Arman',RU,59.7,150.17,1583821265,8.62,91,84,9.62
Puerto Colombia,CO,10.99,-74.95,1583821265,78.8,78,0,13.87
Ponta do Sol,PT,32.67,-17.1,1583821265,59.36,77,20,9.17
Arrondissement de Blois,FR,47.58,1.33,1583821265,49.57,93,90,10.29
Vyartsilya,RU,62.18,30.69,1583821265,35.62,97,100,7.87
Bima,ID,-8.47,118.72,1583821266,82.24,84,82,5.03
Cayenne,GF,4.93,-52.33,1583821266,78.8,74,75,8.05
Wanaka,NZ,-44.7,169.15,1583821266,57.0,82,89,2.82
Sechura,PE,-5.56,-80.82,1583821266,76.48,84,68,7.78
Zhigansk,RU,66.77,123.37,1583821266,-16.94,91,100,16.93
Caucayá,CO,-0.19,-74.78,1583821266,73.6,91,37,1.9
La Rioja,ES,42.25,-2.5,1583821266,44.6,81,63,3.36
Dunedin,NZ,-45.87,170.5,1583821267,52.48,89,100,1.01
Ilulissat,GL,69.22,-51.1,1583821267,12.2,61,60,24.16
Lac du Bonnet,CA,50.25,-96.06,1583821267,9.0,87,13,3.09
Moramanga,MG,-18.93,48.2,1583821267,67.48,91,87,7.58
Nova Olímpia,BR,-14.8,-57.29,1583821267,71.8,92,85,0.81
Tuatapere,NZ,-46.13,167.68,1583821267,52.0,78,100,8.01
Belyy Yar,RU,53.6,91.39,1583821267,30.2,68,100,17.78
Clonakilty,IE,51.62,-8.87,1583821267,52.3,93,75,20.8
Koumac,NC,-20.57,164.28,1583821267,80.26,72,70,3.09
Lempäälä,FI,61.32,23.75,1583821268,36.91,100,90,8.05
Keflavik,IS,64.0,-22.56,1583821268,32.0,54,100,18.34
Ambulu,ID,-8.35,113.61,1583821268,83.32,78,24,13.53
Druzhinino,RU,56.79,59.51,1583821268,32.56,98,87,3.2
Liepāja,LV,56.54,21.04,1583821188,41.0,100,90,10.29
Manono,CD,-7.3,27.42,1583821268,71.98,95,91,0.81
Vitina,BA,43.24,17.48,1583821268,41.0,72,20,3.36
Khangarh,PK,29.92,71.16,1583821269,71.6,56,1,3.49
Zyryanovsk,KZ,49.74,84.27,1583821269,13.84,56,100,2.1
Kidal,ML,18.44,1.41,1583821269,63.34,11,100,11.79
Klaksvík,FO,62.23,-6.59,1583821269,41.0,80,100,16.11
Qaqortoq,GL,60.72,-46.03,1583821269,23.0,67,98,3.36
Straumen,NO,63.87,11.3,1583821269,33.19,92,85,11.41
Belmonte,BR,-15.86,-38.88,1583821269,75.2,88,75,5.82
Kaitangata,NZ,-46.28,169.85,1583821269,51.42,83,100,4.0
Merauke,ID,-8.47,140.33,1583821156,89.26,64,45,12.08
Nizhniy Tsasuchey,RU,50.52,115.13,1583821270,26.62,57,0,7.45
Totness,SR,5.88,-56.32,1583821270,78.46,73,61,13.91
Vestmannaeyjar,IS,63.44,-20.27,1583821270,33.28,63,100,15.05
Vokhtoga,RU,58.81,41.05,1583821270,36.16,88,97,6.85
Rocha,UY,-34.48,-54.33,1583821270,57.58,93,9,3.65
Chokurdakh,RU,70.63,147.92,1583821270,-27.38,94,64,4.45
Sangar,RU,63.92,127.47,1583821270,2.5,89,100,11.68
Alnashi,RU,56.19,52.48,1583821271,32.02,95,92,4.52
Plérin,FR,48.54,-2.78,1583821271,52.77,100,90,16.11
Hrubieszów,PL,50.8,23.89,1583821271,36.52,81,48,3.36
Mayya,RU,61.73,130.28,1583821271,12.2,56,100,6.71
Narsaq,GL,60.92,-46.05,1583821271,23.0,67,100,3.36
Nerchinskiy Zavod,RU,51.31,119.61,1583821271,16.36,88,84,6.69
Qui Nhon,VN,13.77,109.23,1583821271,92.86,53,0,10.29
Najrān,SA,17.49,44.13,1583821271,66.2,29,5,6.93
Krasnoarmeysk,RU,51.02,45.7,1583821272,43.0,81,90,3.0
Afuá,BR,-0.16,-50.39,1583821272,75.94,88,100,9.46
Lagoa,PT,39.05,-27.98,1583821272,62.08,78,100,19.26
Mercedes,AR,-34.65,-59.43,1583821272,64.87,93,100,4.0
La Tuque,CA,47.43,-72.78,1583821076,23.2,96,100,9.71
Tocopilla,CL,-22.09,-70.2,1583821272,62.44,51,100,2.93
Vulturu,RO,45.62,27.42,1583821272,50.0,81,75,16.11
Leh,IN,34.17,77.58,1583821272,15.64,29,94,1.52
Port Hedland,AU,-20.32,118.57,1583821273,95.0,50,0,10.29
Mattawa,US,46.74,-119.9,1583821273,34.56,64,1,2.17
Port Augusta,AU,-32.5,137.77,1583821273,86.5,30,0,12.75
Locri,IT,38.24,16.26,1583821273,48.99,81,20,1.12
Vardø,NO,70.37,31.11,1583821273,35.6,80,75,25.28
Okato,NZ,-39.2,173.88,1583821273,60.44,76,5,7.0
Mitú,CO,1.2,-70.17,1583821273,71.98,98,38,0.78
Luwuk,ID,-0.95,122.79,1583821273,84.22,74,41,14.14
Mahajanga,MG,-15.72,46.32,1583821273,86.0,79,20,2.24
Havelock,US,34.88,-76.9,1583821274,57.38,77,1,5.82
Srednekolymsk,RU,67.45,153.68,1583821274,-9.2,93,100,4.94
Bronzani Majdan,BA,44.79,16.93,1583821274,37.4,86,88,3.36
Richards Bay,ZA,-28.78,32.04,1583821274,74.5,80,0,5.91
Surgāna,IN,20.57,73.62,1583821274,80.44,47,24,11.07
Birin,NP,26.89,88.07,1583821274,55.78,71,23,6.11
Karpogory,RU,64.0,44.45,1583821263,32.74,96,100,10.38
Tarko-Sale,RU,64.92,77.78,1583821275,8.44,93,67,20.69
Binga,ZW,-17.62,27.34,1583821275,74.5,71,0,3.8
Karakol,KG,42.49,78.39,1583821275,29.5,67,0,1.97
Mount Darwin,ZW,-16.77,31.58,1583821275,67.3,90,33,2.28
Ondarroa,ES,43.32,-2.42,1583821275,42.64,100,20,2.24
Bengkulu,ID,-3.8,102.27,1583821275,88.0,58,100,8.08
Aripuanã,BR,-9.17,-60.63,1583821275,71.62,97,32,1.45
Vanimo,PG,-2.67,141.3,1583821276,83.5,76,100,12.46
The Valley,AI,18.22,-63.06,1583821276,77.0,69,40,12.75
Loreto,MX,22.27,-101.97,1583821276,65.86,46,85,7.2
Yuncheng,CN,35.02,110.99,1583821061,53.98,15,17,10.58
Batemans Bay,AU,-35.72,150.18,1583821276,69.33,73,79,4.0
Palmer,US,42.16,-72.33,1583821276,54.27,35,90,3.36
Kaeo,NZ,-35.1,173.78,1583821276,68.36,80,86,14.45
Iqaluit,CA,63.75,-68.51,1583821217,-23.37,67,5,14.99
Bulgan,MN,48.81,103.53,1583821277,27.88,61,63,9.42
Faya,SA,18.39,42.45,1583821277,59.79,32,0,3.51
Cockburn Town,TC,21.46,-71.14,1583821141,74.32,75,29,26.44
Jiayuguan City,CN,39.82,98.3,1583821277,46.24,10,0,10.56
Monrovia,LR,6.3,-10.8,1583821277,79.9,88,79,4.03
Rebra,RO,47.32,24.5,1583821277,39.99,90,99,1.01
Yumen,CN,40.28,97.2,1583821277,45.16,12,0,20.85
Raja,SS,8.46,25.68,1583821277,79.36,22,8,3.8
Atar,MR,20.52,-13.05,1583821278,68.2,12,0,15.84
Mudon,MM,16.26,97.72,1583821278,84.76,58,8,10.69
Måløy,NO,61.94,5.11,1583821278,41.09,60,75,17.22
Matara,LK,5.95,80.54,1583821278,91.96,44,13,7.61
Nizhnevartovsk,RU,60.93,76.55,1583821278,17.6,61,26,8.95
Rantepao,ID,-2.97,119.9,1583821278,78.28,82,100,2.35
Phang Nga,TH,8.45,98.53,1583821278,89.13,62,40,11.41
Atocha,BO,-20.93,-66.23,1583821278,42.28,81,11,4.97
Château-Gontier,FR,47.83,-0.7,1583821279,51.87,93,90,12.75
Oistins,BB,13.07,-59.53,1583821279,77.0,78,75,17.22
Tutóia,BR,-2.76,-42.27,1583821279,73.42,97,89,6.04
Aswān,EG,24.09,32.91,1583820984,60.8,31,0,6.93
Zamora,EC,-4.07,-78.96,1583821279,58.3,99,100,0.83
Yaan,NG,7.38,8.57,1583821279,80.08,78,22,8.16
Yemtsa,RU,63.07,40.33,1583821144,32.38,93,100,9.66
San Luis,AR,-33.3,-66.34,1583821279,75.22,46,6,17.18
Comodoro Rivadavia,AR,-45.87,-67.5,1583821140,53.6,81,60,4.7
Gushikawa,JP,26.35,127.87,1583821280,65.7,77,90,12.75
Skellefteå,SE,64.75,20.95,1583821280,31.51,87,0,6.93
Le Mars,US,42.79,-96.17,1583821280,24.94,100,1,6.64
South Lake Tahoe,US,38.93,-119.98,1583821234,40.91,52,90,11.41
Jambi City,ID,-1.6,103.62,1583821280,93.58,55,74,3.06
Lawrence,US,38.97,-95.24,1583821044,35.69,80,90,13.87
Laguna,US,38.42,-121.42,1583821281,50.11,71,1,3.36
Umluj,SA,25.02,37.27,1583821025,82.42,14,0,2.17
Swellendam,ZA,-34.02,20.44,1583821281,68.0,72,100,9.17
Cam Ranh,VN,11.92,109.16,1583821066,91.4,66,20,11.41
Skibbereen,IE,51.55,-9.27,1583821281,51.8,93,75,20.8
Antalaha,MG,-14.9,50.28,1583821024,82.6,79,78,20.2
Atambua,ID,-9.11,124.89,1583821281,81.52,78,95,4.05
Port Moresby,PG,-9.44,147.18,1583821119,91.4,59,40,17.22
Falun,SE,60.6,15.63,1583821282,34.72,93,40,4.7
Aklavik,CA,68.22,-135.01,1583821282,-14.8,75,90,5.82
Beneditinos,BR,-5.45,-42.37,1583821282,75.2,94,75,5.82
Salalah,OM,17.02,54.09,1583821109,84.2,18,5,14.99
Waipawa,NZ,-41.41,175.52,1583821282,61.3,82,88,4.7
Cedar City,US,37.68,-113.06,1583821196,39.88,56,1,3.36
Saint-Joseph,RE,-21.37,55.62,1583821283,82.92,62,1,13.87
Ambanja,MG,-13.68,48.45,1583821283,84.2,69,40,1.39
Avdon,RU,54.67,55.72,1583821283,33.51,100,90,4.47
Ulcinj,ME,41.93,19.22,1583821283,44.69,65,20,1.12
Turaif,SA,31.67,38.66,1583820999,60.8,48,0,11.41
Beyşehir,TR,37.68,31.72,1583821283,39.04,84,85,24.18
Peto,MX,20.13,-88.92,1583821283,67.12,90,12,3.36
Martil,MA,35.62,-5.28,1583821283,50.94,76,0,9.17
Liverpool,GB,53.41,-2.98,1583820984,51.4,81,75,18.34
Coyhaique,CL,-45.58,-72.07,1583821246,48.2,87,38,8.05
Panama City,PA,8.99,-79.52,1583821007,78.98,74,35,9.17
Buala,SB,-8.14,159.59,1583821284,81.7,81,100,7.38
Kutum,SD,14.2,24.67,1583821284,75.22,12,0,4.52
Canyon Lake,US,29.88,-98.26,1583821284,63.45,88,1,5.82
Perth,AU,-31.93,115.83,1583821284,93.58,21,93,16.11
Cabra,ES,37.47,-4.44,1583821285,47.84,81,2,1.12
Mwadui,TZ,-3.55,33.6,1583821285,66.4,91,100,9.28
Braintree,GB,51.88,0.55,1583821285,52.59,87,75,14.99
Stornoway,GB,58.21,-6.39,1583821285,43.36,93,40,16.11
Oskemen,KZ,49.96,82.61,1583821285,24.8,79,90,6.71
Morant Bay,JM,17.88,-76.41,1583821285,77.4,73,75,8.05
Pauini,BR,-7.71,-66.98,1583821285,73.6,97,20,1.01
Parakou,BJ,9.34,2.63,1583821285,74.86,82,26,2.51
Mbini,GQ,1.57,9.61,1583821285,82.42,80,91,5.28
Cidreira,BR,-30.18,-50.21,1583821286,75.04,79,0,11.12
Airai,TL,-8.93,125.41,1583821286,73.96,93,100,2.33
La Palma,US,33.85,-118.05,1583821286,59.45,63,75,4.7
Manta,EC,-0.95,-80.73,1583821286,77.0,88,75,2.24
Touros,BR,-5.2,-35.46,1583821286,75.2,94,40,4.7
Kavaratti,IN,10.57,72.64,1583821094,84.2,70,20,5.82
Tazovsky,RU,67.47,78.7,1583821286,1.42,95,81,19.04
Pimenteiras,BR,-6.25,-41.42,1583821286,69.64,97,94,1.59
Eidsvåg,NO,62.78,8.07,1583821286,33.82,75,35,14.99
Makakilo City,US,21.35,-158.09,1583821244,70.45,68,75,11.41
Launceston,AU,-41.45,147.17,1583821287,65.82,40,40,5.82
Hermiston,US,45.84,-119.29,1583821262,36.81,74,1,2.57
Sembakung,ID,3.82,117.25,1583821287,85.48,73,11,5.64
Tamiahua,MX,21.27,-97.45,1583821287,72.7,86,13,5.68
Teya,RU,60.38,92.63,1583821287,15.1,85,100,3.42
Camacha,PT,33.08,-16.33,1583821287,60.8,87,20,11.41
Windhoek,NA,-22.56,17.08,1583821287,60.48,67,0,3.36
Uruçuí,BR,-7.23,-44.56,1583821288,72.34,97,100,3.58
San Julián,MX,21.02,-102.17,1583821288,65.68,53,85,4.38
Miraflores,MX,19.22,-98.81,1583821288,64.22,45,75,9.17
Kawalu,ID,-7.38,108.21,1583821288,84.4,60,6,5.93
Kŭlob,TJ,37.91,69.78,1583821288,42.8,87,90,4.47
Aksarka,RU,66.56,67.8,1583821288,28.42,86,100,19.91
Lucea,JM,18.45,-78.17,1583821288,76.55,78,75,16.11
Porto-Novo,BJ,6.5,2.6,1583821288,84.2,89,20,11.41
São Filipe,CV,14.9,-24.5,1583821288,69.82,78,0,10.83
Verkhoyansk,RU,67.54,133.38,1583821289,-16.04,86,98,2.13
Bayan,CN,46.08,127.4,1583821289,28.06,84,98,8.57
Caçapava do Sul,BR,-30.51,-53.49,1583821289,69.28,66,2,3.18
Byron Bay,AU,-28.65,153.62,1583821289,71.35,88,75,11.41
Luga,RU,58.74,29.85,1583821289,35.44,93,51,5.1
Sabha,LY,27.04,14.43,1583821289,50.74,24,0,3.18
Khovd,MN,48.01,91.64,1583821289,35.8,26,75,0.87
Booué,GA,-0.09,11.94,1583821290,73.42,97,96,1.03
Rodrigues Alves,BR,-7.74,-72.65,1583821290,74.32,90,29,0.94
Cervo,ES,43.67,-7.41,1583821290,46.44,79,100,4.0
Dunmore Town,BS,25.5,-76.65,1583821290,71.26,72,32,28.39
Kermanshah,IR,34.31,47.06,1583821127,48.2,23,47,4.7
Conceição do Araguaia,BR,-8.26,-49.26,1583821290,72.7,97,100,3.83
Sibu,MY,2.3,111.82,1583821290,89.38,70,75,2.24
Yabēlo,ET,4.88,38.08,1583821290,74.14,59,70,7.23
Taoudenni,ML,22.68,-3.98,1583821290,57.58,15,83,8.21
Xi'an,CN,34.26,108.93,1583821171,58.26,19,84,4.47
Jackson,US,42.42,-122.83,1583821291,39.29,74,1,10.29
Luena,AO,-11.78,19.92,1583821291,64.78,96,100,4.63
Kutulik,RU,53.35,102.78,1583821291,27.88,84,100,9.04
Atbasar,KZ,51.8,68.33,1583821291,25.36,94,97,6.76
Walvis Bay,NA,-22.96,14.51,1583821291,67.48,75,0,8.7
Kristinehamn,SE,59.31,14.11,1583821291,38.57,100,90,6.93
Torbay,CA,47.67,-52.73,1583821292,7.66,60,20,19.46
Vostok,RU,46.49,135.88,1583821292,29.5,84,100,3.74
Tulun,RU,54.56,100.58,1583821292,24.46,84,100,12.82
Port-Cartier,CA,50.03,-66.87,1583821292,5.0,34,75,9.17
Boguchany,RU,58.38,97.45,1583821292,15.28,90,100,6.71
Shahr-e Kord,IR,32.33,50.86,1583821213,41.0,25,0,2.24
Bonthe,SL,7.53,-12.51,1583821292,79.54,87,95,4.97
Gostilitsy,RU,59.75,29.62,1583821292,35.78,81,40,4.47
Alice Springs,AU,-23.7,133.88,1583821255,91.4,13,0,11.41
Kang,BW,-23.68,22.79,1583821293,73.24,41,0,10.2
Kilindoni,TZ,-7.91,39.67,1583821293,81.34,84,89,7.67
Sunrise Manor,US,36.21,-115.07,1583821293,60.01,25,1,5.82
Imbituba,BR,-28.24,-48.67,1583821293,73.4,100,0,9.17
Usinsk,RU,65.99,57.53,1583821293,32.56,91,100,20.8
Mingguang,CN,32.78,117.96,1583821293,57.04,45,25,7.83
Homer,US,59.64,-151.55,1583821294,22.96,79,75,3.36
Saqqez,IR,36.25,46.27,1583821294,43.9,22,73,2.26
Shelburne,CA,44.08,-80.2,1583821294,48.49,81,90,17.22
Ullapool,GB,57.9,-5.16,1583821294,45.93,89,97,11.01
Ligayan,PH,4.65,119.47,1583821294,83.68,75,0,11.12
Kenora,CA,49.82,-94.43,1583821294,10.65,66,22,6.93
Bangassou,CF,4.74,22.82,1583821113,77.38,67,47,4.76
Litovko,RU,49.24,135.17,1583821294,24.46,62,34,1.61
Tabas,IR,33.6,56.92,1583821295,57.2,19,0,4.7
Zadar,HR,44.12,15.24,1583821295,40.44,80,20,4.7
Banda Aceh,ID,5.56,95.32,1583821160,82.24,75,98,7.94
Labuhan,ID,-6.88,112.21,1583821295,87.64,65,39,5.82
Shingū,JP,33.73,135.98,1583821295,64.4,100,75,9.17
Tautira,PF,-17.73,-149.15,1583821295,84.11,66,75,4.7
Superior,US,46.72,-92.1,1583821295,23.59,85,1,6.44
Mayumba,GA,-3.43,10.66,1583821295,82.24,82,100,6.13
Rockport,US,28.02,-97.05,1583821297,68.31,83,75,5.82
Maragogi,BR,-9.01,-35.22,1583821297,80.98,76,93,7.23
Teruel,ES,40.67,-0.67,1583821297,42.55,80,77,1.12
Rosignano Marittimo,IT,43.41,10.47,1583821297,40.62,100,11,5.82
Kalāleh,IR,37.38,55.49,1583821297,57.2,58,0,2.24
Bukachacha,RU,52.98,116.92,1583821297,19.96,72,0,6.17
Santa Fe,AR,-31.63,-60.7,1583821297,76.33,63,22,5.01
Novomykolayivka,UA,47.98,35.91,1583821297,49.89,70,100,8.95
Cuencamé de Ceniceros,MX,24.87,-103.7,1583821298,61.9,68,94,4.54
Tiznit Province,MA,29.58,-9.5,1583821298,56.32,19,0,3.53
Ponta Delgada,PT,37.73,-25.67,1583821298,60.8,67,75,10.29
Eydhafushi,MV,5.1,73.07,1583821298,83.5,69,75,10.98
Abaeté,BR,-19.16,-45.45,1583821005,65.68,93,5,2.39
Summerville,US,33.02,-80.18,1583821298,55.24,87,75,3.36
Severnoye,RU,56.35,78.36,1583821298,16.0,88,91,7.9
Valleyview,CA,55.07,-117.29,1583821298,19.6,80,0,6.49
Kununurra,AU,-15.77,128.73,1583821298,98.6,25,0,6.93
Tambun,ID,-6.26,107.07,1583821299,93.74,52,40,6.93
Erzin,TR,36.96,36.2,1583821299,61.88,63,0,3.47
